{
  "generatedAt": "2026-07-16T17:15:31.176Z",
  "throughDate": "2026-07-16",
  "dates": {
    "2026-06-17": {
      "dayKey": "June17",
      "locations": [
        {
          "name": "Reykjavík, Iceland",
          "lat": 64.1466,
          "lng": -21.9426
        },
        {
          "name": "Seville, Spain",
          "lat": 37.3891,
          "lng": -5.9845
        },
        {
          "name": "Guadalajara, Jalisco, Mexico",
          "lat": 20.6597,
          "lng": -103.3496
        },
        {
          "name": "Leeuwarden, Netherlands",
          "lat": 53.2012,
          "lng": 5.7999
        },
        {
          "name": "Agra, India",
          "lat": 27.1767,
          "lng": 78.0081
        }
      ]
    },
    "2026-06-18": {
      "dayKey": "June18",
      "locations": [
        {
          "name": "Baltimore, Maryland",
          "lat": 39.2904,
          "lng": -76.6122
        },
        {
          "name": "Syracuse, Sicily, Italy",
          "lat": 37.0755,
          "lng": 15.2866
        },
        {
          "name": "The Battle of Waterloo (Belgium)",
          "lat": 50.6806,
          "lng": 4.4128
        },
        {
          "name": "Algiers, Algeria",
          "lat": 36.7538,
          "lng": 3.0588
        },
        {
          "name": "Ternate, North Maluku, Indonesia",
          "lat": 0.79,
          "lng": 127.3842
        }
      ]
    },
    "2026-06-19": {
      "dayKey": "June19",
      "locations": [
        {
          "name": "Galveston, Texas",
          "lat": 29.3013,
          "lng": -94.7977
        },
        {
          "name": "Dortmund, Germany",
          "lat": 51.5136,
          "lng": 7.4653
        },
        {
          "name": "Clermont-Ferrand, France",
          "lat": 45.7772,
          "lng": 3.087
        },
        {
          "name": "Monterrey, Nuevo León, Mexico",
          "lat": 25.6866,
          "lng": -100.3161
        },
        {
          "name": "Valparaíso, Chile",
          "lat": -33.0472,
          "lng": -71.6127
        }
      ]
    },
    "2026-06-20": {
      "dayKey": "June20",
      "locations": [
        {
          "name": "Ulm, Germany",
          "lat": 48.4011,
          "lng": 9.9876
        },
        {
          "name": "Amman, Jordan",
          "lat": 31.9539,
          "lng": 35.9106
        },
        {
          "name": "Chernivtsi, Ukraine",
          "lat": 48.2915,
          "lng": 25.9403
        },
        {
          "name": "Hargeisa, Somaliland",
          "lat": 9.5624,
          "lng": 44.077
        },
        {
          "name": "Douala, Cameroon",
          "lat": 4.0511,
          "lng": 9.7679
        }
      ]
    },
    "2026-06-21": {
      "dayKey": "June21",
      "locations": [
        {
          "name": "Evansville, Indiana",
          "lat": 37.9716,
          "lng": -87.5711
        },
        {
          "name": "Aswan, Egypt",
          "lat": 24.0889,
          "lng": 32.8998
        },
        {
          "name": "Riga, Latvia",
          "lat": 56.9496,
          "lng": 24.1052
        },
        {
          "name": "Sennar, Sudan",
          "lat": 13.55,
          "lng": 33.6
        },
        {
          "name": "Apra Harbor, Guam, United States",
          "lat": 13.4443,
          "lng": 144.6504
        }
      ]
    },
    "2026-06-22": {
      "dayKey": "June22",
      "locations": [
        {
          "name": "London, England, United Kingdom",
          "lat": 51.5074,
          "lng": -0.1278
        },
        {
          "name": "Cleveland, Ohio",
          "lat": 41.4993,
          "lng": -81.6944
        },
        {
          "name": "Olympia, Washington",
          "lat": 47.0379,
          "lng": -122.9007
        },
        {
          "name": "Nasiriyah, Iraq",
          "lat": 31.057,
          "lng": 46.2573
        },
        {
          "name": "Manaus, Amazonas, Brazil",
          "lat": -3.119,
          "lng": -60.0217
        }
      ]
    },
    "2026-06-23": {
      "dayKey": "June23",
      "locations": [
        {
          "name": "Hollywood, California",
          "lat": 34.0983,
          "lng": -118.3267
        },
        {
          "name": "Richmond, Virginia",
          "lat": 37.5407,
          "lng": -77.436
        },
        {
          "name": "Mannheim, Germany",
          "lat": 49.4875,
          "lng": 8.466
        },
        {
          "name": "Thunder Bay, Ontario, Canada",
          "lat": 48.3809,
          "lng": -89.2477
        },
        {
          "name": "Riyadh, Saudi Arabia",
          "lat": 24.7136,
          "lng": 46.6753
        }
      ]
    },
    "2026-06-24": {
      "dayKey": "June24",
      "locations": [
        {
          "name": "Tacoma, Washington",
          "lat": 47.2529,
          "lng": -122.4443
        },
        {
          "name": "Liège, Belgium",
          "lat": 50.6326,
          "lng": 5.5797
        },
        {
          "name": "Verona, Italy",
          "lat": 45.4384,
          "lng": 10.9916
        },
        {
          "name": "Bandung, West Java, Indonesia",
          "lat": -6.9175,
          "lng": 107.6191
        },
        {
          "name": "Cusco, Peru",
          "lat": -13.5167,
          "lng": -71.9789
        }
      ]
    },
    "2026-06-25": {
      "dayKey": "June25",
      "locations": [
        {
          "name": "Newport, Rhode Island",
          "lat": 41.4901,
          "lng": -71.3128
        },
        {
          "name": "Panama City, Panama",
          "lat": 8.9824,
          "lng": -79.5199
        },
        {
          "name": "Cape Horn, Chile",
          "lat": -55.9833,
          "lng": -67.2667
        },
        {
          "name": "Babylon (modern day Iraq)",
          "lat": 32.5364,
          "lng": 44.42
        },
        {
          "name": "Nukuʻalofa, Tonga",
          "lat": -21.1394,
          "lng": -175.2047
        }
      ]
    },
    "2026-06-26": {
      "dayKey": "June26",
      "locations": [
        {
          "name": "Glasgow, Scotland",
          "lat": 55.8642,
          "lng": -4.2518
        },
        {
          "name": "Berlin, Germany",
          "lat": 52.52,
          "lng": 13.405
        },
        {
          "name": "Toronto, Canada",
          "lat": 43.6532,
          "lng": -79.3832
        },
        {
          "name": "Accra, Ghana",
          "lat": 5.6037,
          "lng": -0.187
        },
        {
          "name": "Port Vila, Vanuatu",
          "lat": -17.7333,
          "lng": 168.3273
        }
      ]
    },
    "2026-06-27": {
      "dayKey": "June27",
      "locations": [
        {
          "name": "Göttingen, Germany",
          "lat": 51.5413,
          "lng": 9.9158
        },
        {
          "name": "Kyiv, Ukraine",
          "lat": 50.4501,
          "lng": 30.5234
        },
        {
          "name": "Brisbane, Australia",
          "lat": -27.4698,
          "lng": 153.0251
        },
        {
          "name": "Utqiagvik (Barrow), Alaska",
          "lat": 71.2906,
          "lng": -156.7886
        },
        {
          "name": "Djibouti City, Djibouti",
          "lat": 11.5721,
          "lng": 43.1456
        }
      ]
    },
    "2026-06-28": {
      "dayKey": "June28",
      "locations": [
        {
          "name": "Charleston, South Carolina",
          "lat": 32.7765,
          "lng": -79.9311
        },
        {
          "name": "Athens, Greece",
          "lat": 37.9838,
          "lng": 23.7275
        },
        {
          "name": "Port-au-Prince, Haiti",
          "lat": 18.5944,
          "lng": -72.3074
        },
        {
          "name": "Vientiane, Laos",
          "lat": 17.9757,
          "lng": 102.6331
        },
        {
          "name": "Ouagadougou, Burkina Faso",
          "lat": 12.3714,
          "lng": -1.5197
        }
      ]
    },
    "2026-06-29": {
      "dayKey": "June29",
      "locations": [
        {
          "name": "Chicago, Illinois",
          "lat": 41.8781,
          "lng": -87.6298
        },
        {
          "name": "Cupertino, California",
          "lat": 37.3229,
          "lng": -122.0322
        },
        {
          "name": "Perth, Australia",
          "lat": -31.9523,
          "lng": 115.8613
        },
        {
          "name": "Lahore, Pakistan",
          "lat": 31.5497,
          "lng": 74.3436
        },
        {
          "name": "Baikonur, Kazakhstan",
          "lat": 45.92,
          "lng": 63.342
        }
      ]
    },
    "2026-06-30": {
      "dayKey": "June30",
      "locations": [
        {
          "name": "Anglesey, Wales, United Kingdom",
          "lat": 53.2787,
          "lng": -4.1427
        },
        {
          "name": "Mount Rushmore, South Dakota",
          "lat": 43.8791,
          "lng": -103.4591
        },
        {
          "name": "Mérida, Yucatán, Mexico",
          "lat": 20.9674,
          "lng": -89.5926
        },
        {
          "name": "Krasnoyarsk, Siberia, Russia",
          "lat": 56.0153,
          "lng": 92.8932
        },
        {
          "name": "Santa Cruz de Tenerife, Canary Islands, Spain",
          "lat": 28.4636,
          "lng": -16.2518
        }
      ]
    },
    "2026-07-01": {
      "dayKey": "July1",
      "locations": [
        {
          "name": "Newark, New Jersey",
          "lat": 40.743,
          "lng": -74.1724
        },
        {
          "name": "Tokyo, Japan",
          "lat": 35.6764,
          "lng": 139.65
        },
        {
          "name": "Charlottetown, Prince Edward Island, Canada",
          "lat": 46.2382,
          "lng": -63.1311
        },
        {
          "name": "Gaborone, Botswana",
          "lat": -24.6282,
          "lng": 25.9231
        },
        {
          "name": "Darwin, Australia",
          "lat": -12.4634,
          "lng": 130.8456
        }
      ]
    },
    "2026-07-02": {
      "dayKey": "July2",
      "locations": [
        {
          "name": "Roswell, New Mexico",
          "lat": 33.3943,
          "lng": -104.523
        },
        {
          "name": "Stuttgart, Germany",
          "lat": 48.7758,
          "lng": 9.1829
        },
        {
          "name": "Salvador, Bahia, Brazil",
          "lat": -12.9777,
          "lng": -38.5016
        },
        {
          "name": "Holmenkollen, Norway",
          "lat": 59.9636,
          "lng": 10.6672
        },
        {
          "name": "Chiang Rai, Thailand",
          "lat": 19.9105,
          "lng": 99.8406
        }
      ]
    },
    "2026-07-03": {
      "dayKey": "July3",
      "locations": [
        {
          "name": "Cape Cod, Massachusetts",
          "lat": 41.6688,
          "lng": -70.2962
        },
        {
          "name": "Kozhikode (Calicut), Kerala, India",
          "lat": 11.2588,
          "lng": 75.7804
        },
        {
          "name": "Frederiksted, St. Croix, US Virgin Islands",
          "lat": 17.7117,
          "lng": -64.8826
        },
        {
          "name": "Banjul, The Gambia",
          "lat": 13.4549,
          "lng": -16.579
        },
        {
          "name": "Qizhou, Hubei Province, China ",
          "lat": 30.234,
          "lng": 115.433
        }
      ]
    },
    "2026-07-04": {
      "dayKey": "July4",
      "locations": [
        {
          "name": "Boston, Massachusetts",
          "lat": 42.3601,
          "lng": -71.0589
        },
        {
          "name": "Dublin, Ireland",
          "lat": 53.3498,
          "lng": -6.2603
        },
        {
          "name": "New Orleans, Louisiana",
          "lat": 29.9511,
          "lng": -90.0715
        },
        {
          "name": "Port Hedland, Western Australia, Australia",
          "lat": -20.3104,
          "lng": 118.5775
        },
        {
          "name": "Kaifeng, Henan Province, China",
          "lat": 34.7973,
          "lng": 114.3076
        }
      ]
    },
    "2026-07-05": {
      "dayKey": "July5",
      "locations": [
        {
          "name": "Cambridge, England",
          "lat": 52.2053,
          "lng": 0.1218
        },
        {
          "name": "Memphis, Tennessee",
          "lat": 35.1495,
          "lng": -90.049
        },
        {
          "name": "Algiers, Algeria",
          "lat": 36.7538,
          "lng": 3.0588
        },
        {
          "name": "Maturín, Venezuela",
          "lat": 9.7457,
          "lng": -63.1832
        },
        {
          "name": "Praia, Cape Verde",
          "lat": 14.9331,
          "lng": -23.5133
        }
      ]
    },
    "2026-07-06": {
      "dayKey": "July6",
      "locations": [
        {
          "name": "Manchester, New Hampshire",
          "lat": 42.9956,
          "lng": -71.4548
        },
        {
          "name": "Camp Hood, Texas",
          "lat": 31.1349,
          "lng": -97.78
        },
        {
          "name": "Sparta, Greece",
          "lat": 37.0755,
          "lng": 22.4297
        },
        {
          "name": "Auckland, New Zealand",
          "lat": -36.8485,
          "lng": 174.7633
        },
        {
          "name": "Moroni, Comoros",
          "lat": -11.7172,
          "lng": 43.2473
        }
      ]
    },
    "2026-07-07": {
      "dayKey": "July7",
      "locations": [
        {
          "name": "Ocean City, Maryland, USA",
          "lat": 38.3365,
          "lng": -75.0849
        },
        {
          "name": "Rome, Italy",
          "lat": 41.9028,
          "lng": 12.4964
        },
        {
          "name": "Sendai, Japan",
          "lat": 38.2682,
          "lng": 140.8694
        },
        {
          "name": "St Paul, St Paul Island, Pribilof Islands, Alaska, USA",
          "lat": 57.1236,
          "lng": -170.275
        },
        {
          "name": "Honiara, Guadalcanal, Solomon Islands",
          "lat": -9.4456,
          "lng": 159.9729
        }
      ]
    },
    "2026-07-08": {
      "dayKey": "July8",
      "locations": [
        {
          "name": "Atlantic City, New Jersey, USA",
          "lat": 39.3643,
          "lng": -74.4229
        },
        {
          "name": "Toulouse, France",
          "lat": 43.6047,
          "lng": 1.4442
        },
        {
          "name": "Yokohama, Japan",
          "lat": 35.4437,
          "lng": 139.638
        },
        {
          "name": "Nuuk, Greenland",
          "lat": 64.1835,
          "lng": -51.7216
        },
        {
          "name": "Lagash, Sumer (modern-day Iraq)",
          "lat": 31.4167,
          "lng": 46.4
        }
      ]
    },
    "2026-07-09": {
      "dayKey": "July9",
      "locations": [
        {
          "name": "Montgomery, Alabama, USA",
          "lat": 32.3792,
          "lng": -86.3077
        },
        {
          "name": "Zadar, Croatia",
          "lat": 44.1194,
          "lng": 15.2314
        },
        {
          "name": "Sucre, Bolivia",
          "lat": -19.0421,
          "lng": -65.2559
        },
        {
          "name": "San Miguel de Tucumán, Argentina",
          "lat": -26.8083,
          "lng": -65.2176
        },
        {
          "name": "Juba, South Sudan",
          "lat": 4.8517,
          "lng": 31.5825
        }
      ]
    },
    "2026-07-10": {
      "dayKey": "July10",
      "locations": [
        {
          "name": "Cheyenne, Wyoming",
          "lat": 41.14,
          "lng": -104.8202
        },
        {
          "name": "Johannesburg, South Africa",
          "lat": -26.2041,
          "lng": 28.0473
        },
        {
          "name": "Vilnius, Lithuania",
          "lat": 54.6872,
          "lng": 25.2797
        },
        {
          "name": "Nassau, Bahamas",
          "lat": 25.0443,
          "lng": -77.3504
        },
        {
          "name": "Pattaya, Thailand",
          "lat": 12.9236,
          "lng": 100.8825
        }
      ]
    },
    "2026-07-11": {
      "dayKey": "July11",
      "locations": [
        {
          "name": "Carlsbad, New Mexico",
          "lat": 32.4207,
          "lng": -104.2288
        },
        {
          "name": "Marseille, France",
          "lat": 43.2965,
          "lng": 5.3698
        },
        {
          "name": "Nagoya, Japan",
          "lat": 35.1815,
          "lng": 136.9066
        },
        {
          "name": "Nanjing, Jiangsu, China",
          "lat": 32.0603,
          "lng": 118.7969
        },
        {
          "name": "Niamey, Niger",
          "lat": 13.5127,
          "lng": 2.1126
        }
      ]
    },
    "2026-07-12": {
      "dayKey": "July12",
      "locations": [
        {
          "name": "Stoke-on-Trent, England, United Kingdom",
          "lat": 53.0027,
          "lng": -2.1794
        },
        {
          "name": "Ferrara, Italy",
          "lat": 44.8378,
          "lng": 11.6197
        },
        {
          "name": "Montreal, Quebec, Canada",
          "lat": 45.5019,
          "lng": -73.5674
        },
        {
          "name": "Bila Tserkva, Ukraine",
          "lat": 49.795,
          "lng": 30.131
        },
        {
          "name": "South Tarawa, Kiribati",
          "lat": 1.3382,
          "lng": 173.0176
        }
      ]
    },
    "2026-07-13": {
      "dayKey": "July13",
      "locations": [
        {
          "name": "Little Rock, Arkansas, USA",
          "lat": 34.7465,
          "lng": -92.2896
        },
        {
          "name": "Budapest, Hungary",
          "lat": 47.4979,
          "lng": 19.0402
        },
        {
          "name": "Montevideo, Uruguay",
          "lat": -34.9011,
          "lng": -56.1645
        },
        {
          "name": "Ulaanbaatar, Mongolia",
          "lat": 47.8864,
          "lng": 106.9057
        },
        {
          "name": "Papeete, Tahiti",
          "lat": -17.5516,
          "lng": -149.5585
        }
      ]
    },
    "2026-07-14": {
      "dayKey": "July14",
      "locations": [
        {
          "name": "Boulder, Colorado",
          "lat": 40.015,
          "lng": -105.2705
        },
        {
          "name": "Cairo, Egypt",
          "lat": 30.0444,
          "lng": 31.2357
        },
        {
          "name": "Mosul, Iraq",
          "lat": 36.335,
          "lng": 43.1189
        },
        {
          "name": "Machu Picchu, Peru",
          "lat": -13.1631,
          "lng": -72.545
        },
        {
          "name": "Kigoma, Tanzania",
          "lat": -4.8769,
          "lng": 29.6267
        }
      ]
    },
    "2026-07-15": {
      "dayKey": "July15",
      "locations": [
        {
          "name": "Orlando, Florida, USA",
          "lat": 28.5383,
          "lng": -81.3792
        },
        {
          "name": "Manchester, England, United Kingdom",
          "lat": 53.4808,
          "lng": -2.2426
        },
        {
          "name": "Gangnam, Seoul, South Korea",
          "lat": 37.5172,
          "lng": 127.0473
        },
        {
          "name": "Rosetta, Egypt",
          "lat": 31.4044,
          "lng": 30.4164
        },
        {
          "name": "Hong Kong, China",
          "lat": 22.3193,
          "lng": 114.1694
        }
      ]
    }
  }
}
